[
  {
    "name": "Pujol",
    "country": "MX",
    "state": "Ciudad de Mexico",
    "city": "Ciudad de Mexico",
    "zone": "Polanco",
    "address": "Tennyson 133, Polanco, Miguel Hidalgo, CP 11550",
    "lat": 19.4318,
    "lng": -99.1948,
    "latitude": 19.4318,
    "longitude": -99.1948,
    "category": "restaurantes",
    "subcategory": "fine_dining",
    "business_type": "restaurante",
    "cuisine_or_service": "Mexicana, Cocina moderna",
    "award_source": "MICHELIN Guide",
    "award_name": "MICHELIN Star",
    "award_year": 2026,
    "award_level": 2,
    "green_award": false,
    "is_new_year": false,
    "badge_text": "2 Estrellas MICHELIN 2026",
    "icon_key": "gold_double_star",
    "search_aliases": ["pujol", "michelin cdmx", "fine dining polanco", "alta cocina ciudad de mexico"],
    "source_url": "https://guide.michelin.com/",
    "verification_status": "verified",
    "notes": "Sucursal premiada confirmada en Polanco."
  },
  {
    "name": "Quintonil",
    "country": "MX",
    "state": "Ciudad de Mexico",
    "city": "Ciudad de Mexico",
    "zone": "Polanco",
    "address": "Isaac Newton 55, Polanco, Miguel Hidalgo, CP 11560",
    "lat": 19.4326,
    "lng": -99.1971,
    "latitude": 19.4326,
    "longitude": -99.1971,
    "category": "restaurantes",
    "subcategory": "fine_dining",
    "business_type": "restaurante",
    "cuisine_or_service": "Mexicana, Contemporanea",
    "award_source": "MICHELIN Guide",
    "award_name": "MICHELIN Star",
    "award_year": 2026,
    "award_level": 2,
    "green_award": false,
    "is_new_year": false,
    "badge_text": "2 Estrellas MICHELIN 2026",
    "icon_key": "gold_double_star",
    "search_aliases": ["quintonil", "michelin polanco", "fine dining cdmx"],
    "source_url": "https://guide.michelin.com/",
    "verification_status": "verified",
    "notes": "Referencia editorial Michelin."
  },
  {
    "name": "Gaba",
    "country": "MX",
    "state": "Ciudad de Mexico",
    "city": "Ciudad de Mexico",
    "zone": "Condesa",
    "address": "Av. Mazatlan 190, Colonia Condesa, Cuauhtemoc, CP 06170",
    "lat": 19.4115,
    "lng": -99.1741,
    "latitude": 19.4115,
    "longitude": -99.1741,
    "category": "restaurantes",
    "subcategory": "fine_dining",
    "business_type": "restaurante",
    "cuisine_or_service": "Mexicana",
    "award_source": "MICHELIN Guide",
    "award_name": "MICHELIN Star",
    "award_year": 2026,
    "award_level": 1,
    "green_award": false,
    "is_new_year": true,
    "badge_text": "1 Estrella MICHELIN 2026 | Nuevo 2026",
    "icon_key": "gold_star",
    "search_aliases": ["gaba", "michelin condesa", "nuevo michelin 2026 cdmx"],
    "source_url": "https://guide.michelin.com/",
    "verification_status": "verified",
    "notes": "Nuevo en 2026."
  },
  {
    "name": "La Once Mil",
    "country": "MX",
    "state": "Ciudad de Mexico",
    "city": "Ciudad de Mexico",
    "zone": "Lomas de Chapultepec",
    "address": "Monte Everest 780, Lomas de Chapultepec, Miguel Hidalgo, CP 11000",
    "lat": 19.4279,
    "lng": -99.2094,
    "latitude": 19.4279,
    "longitude": -99.2094,
    "category": "restaurantes",
    "subcategory": "fine_dining",
    "business_type": "restaurante de tacos",
    "cuisine_or_service": "Mexicana, Tacos",
    "award_source": "MICHELIN Guide",
    "award_name": "MICHELIN Star",
    "award_year": 2026,
    "award_level": 1,
    "green_award": false,
    "is_new_year": true,
    "badge_text": "1 Estrella MICHELIN 2026 | Nuevo 2026",
    "icon_key": "gold_star",
    "search_aliases": ["la once mil", "tacos michelin cdmx", "nuevo michelin lomas"],
    "source_url": "https://guide.michelin.com/",
    "verification_status": "verified",
    "notes": "Nuevo en 2026."
  },
  {
    "name": "Em",
    "country": "MX",
    "state": "Ciudad de Mexico",
    "city": "Ciudad de Mexico",
    "zone": "Roma Norte",
    "address": "Tonala 133, Roma Norte, Cuauhtemoc, CP 06700",
    "lat": 19.4162,
    "lng": -99.1606,
    "latitude": 19.4162,
    "longitude": -99.1606,
    "category": "restaurantes",
    "subcategory": "fine_dining",
    "business_type": "restaurante",
    "cuisine_or_service": "Mexicana, Contemporanea",
    "award_source": "MICHELIN Guide",
    "award_name": "MICHELIN Star",
    "award_year": 2026,
    "award_level": 1,
    "green_award": false,
    "is_new_year": false,
    "badge_text": "1 Estrella MICHELIN 2026",
    "icon_key": "gold_star",
    "search_aliases": ["em", "michelin roma norte", "alta cocina roma norte"],
    "source_url": "https://guide.michelin.com/",
    "verification_status": "verified",
    "notes": ""
  },
  {
    "name": "Esquina Comun",
    "country": "MX",
    "state": "Ciudad de Mexico",
    "city": "Ciudad de Mexico",
    "zone": "Condesa",
    "address": "Fernando Montes de Oca 86, Condesa, Cuauhtemoc, CP 06140",
    "lat": 19.4138,
    "lng": -99.1715,
    "latitude": 19.4138,
    "longitude": -99.1715,
    "category": "restaurantes",
    "subcategory": "fine_dining",
    "business_type": "restaurante",
    "cuisine_or_service": "Mexicana, Creativa",
    "award_source": "MICHELIN Guide",
    "award_name": "MICHELIN Star",
    "award_year": 2026,
    "award_level": 1,
    "green_award": false,
    "is_new_year": false,
    "badge_text": "1 Estrella MICHELIN 2026",
    "icon_key": "gold_star",
    "search_aliases": ["esquina comun", "michelin condesa", "restaurante premiado condesa"],
    "source_url": "https://guide.michelin.com/",
    "verification_status": "verified",
    "notes": ""
  },
  {
    "name": "Expendio de Maiz",
    "country": "MX",
    "state": "Ciudad de Mexico",
    "city": "Ciudad de Mexico",
    "zone": "Roma Norte",
    "address": "Av. Yucatan 84, Roma Norte, Cuauhtemoc, CP 06700",
    "lat": 19.4173,
    "lng": -99.1594,
    "latitude": 19.4173,
    "longitude": -99.1594,
    "category": "restaurantes",
    "subcategory": "fine_dining",
    "business_type": "restaurante",
    "cuisine_or_service": "Mexicana",
    "award_source": "MICHELIN Guide",
    "award_name": "MICHELIN Star",
    "award_year": 2026,
    "award_level": 1,
    "green_award": false,
    "is_new_year": false,
    "badge_text": "1 Estrella MICHELIN 2026",
    "icon_key": "gold_star",
    "search_aliases": ["expendio de maiz", "michelin roma", "maiz michelin cdmx"],
    "source_url": "https://guide.michelin.com/",
    "verification_status": "verified",
    "notes": ""
  },
  {
    "name": "Masala y Maiz",
    "country": "MX",
    "state": "Ciudad de Mexico",
    "city": "Ciudad de Mexico",
    "zone": "Centro",
    "address": "C. Articulo 123 116, Colonia Centro, Cuauhtemoc, CP 06040",
    "lat": 19.4305,
    "lng": -99.1467,
    "latitude": 19.4305,
    "longitude": -99.1467,
    "category": "restaurantes",
    "subcategory": "fine_dining",
    "business_type": "restaurante fusion",
    "cuisine_or_service": "Fusion mexicana, india y africana",
    "award_source": "MICHELIN Guide",
    "award_name": "MICHELIN Star",
    "award_year": 2026,
    "award_level": 1,
    "green_award": false,
    "is_new_year": false,
    "badge_text": "1 Estrella MICHELIN 2026",
    "icon_key": "gold_star",
    "search_aliases": ["masala y maiz", "fusion michelin cdmx", "restaurante indio africano mexico"],
    "source_url": "https://guide.michelin.com/",
    "verification_status": "verified",
    "notes": ""
  },
  {
    "name": "Maximo",
    "country": "MX",
    "state": "Ciudad de Mexico",
    "city": "Ciudad de Mexico",
    "zone": "Roma Norte",
    "address": "Alvaro Obregon 65 Bis, Roma Norte, Cuauhtemoc, CP 06700",
    "lat": 19.4185,
    "lng": -99.1623,
    "latitude": 19.4185,
    "longitude": -99.1623,
    "category": "restaurantes",
    "subcategory": "fine_dining",
    "business_type": "restaurante",
    "cuisine_or_service": "Mexicana",
    "award_source": "MICHELIN Guide",
    "award_name": "MICHELIN Star",
    "award_year": 2026,
    "award_level": 1,
    "green_award": false,
    "is_new_year": false,
    "badge_text": "1 Estrella MICHELIN 2026",
    "icon_key": "gold_star",
    "search_aliases": ["maximo", "michelin roma norte", "fine dining alvaro obregon"],
    "source_url": "https://guide.michelin.com/",
    "verification_status": "verified",
    "notes": ""
  },
  {
    "name": "Rosetta",
    "country": "MX",
    "state": "Ciudad de Mexico",
    "city": "Ciudad de Mexico",
    "zone": "Roma Norte",
    "address": "Colima 166, Roma Norte, Cuauhtemoc, CP 06700",
    "lat": 19.4192,
    "lng": -99.1604,
    "latitude": 19.4192,
    "longitude": -99.1604,
    "category": "restaurantes",
    "subcategory": "fine_dining",
    "business_type": "restaurante",
    "cuisine_or_service": "Creativa, Mexicana",
    "award_source": "MICHELIN Guide",
    "award_name": "MICHELIN Star",
    "award_year": 2026,
    "award_level": 1,
    "green_award": false,
    "is_new_year": false,
    "badge_text": "1 Estrella MICHELIN 2026",
    "icon_key": "gold_star",
    "search_aliases": ["rosetta", "michelin roma", "alta cocina colima"],
    "source_url": "https://guide.michelin.com/",
    "verification_status": "verified",
    "notes": ""
  },
  {
    "name": "Sud 777",
    "country": "MX",
    "state": "Ciudad de Mexico",
    "city": "Ciudad de Mexico",
    "zone": "Jardines del Pedregal",
    "address": "Blvd. de la Luz 777, Jardines del Pedregal, Alvaro Obregon, CP 01900",
    "lat": 19.3215,
    "lng": -99.1920,
    "latitude": 19.3215,
    "longitude": -99.1920,
    "category": "restaurantes",
    "subcategory": "fine_dining",
    "business_type": "restaurante",
    "cuisine_or_service": "Creativa, Mexicana contemporanea",
    "award_source": "MICHELIN Guide",
    "award_name": "MICHELIN Star",
    "award_year": 2026,
    "award_level": 1,
    "green_award": false,
    "is_new_year": false,
    "badge_text": "1 Estrella MICHELIN 2026",
    "icon_key": "gold_star",
    "search_aliases": ["sud 777", "michelin pedregal", "fine dining sur cdmx"],
    "source_url": "https://guide.michelin.com/",
    "verification_status": "verified",
    "notes": ""
  },
  {
    "name": "Alcalde",
    "country": "MX",
    "state": "Jalisco",
    "city": "Guadalajara",
    "zone": "Guadalajara",
    "address": "Av. Mexico 2903, Guadalajara, CP 44690",
    "lat": 20.6721,
    "lng": -103.3820,
    "latitude": 20.6721,
    "longitude": -103.3820,
    "category": "restaurantes",
    "subcategory": "fine_dining",
    "business_type": "restaurante",
    "cuisine_or_service": "Mexicana",
    "award_source": "MICHELIN Guide",
    "award_name": "MICHELIN Star",
    "award_year": 2026,
    "award_level": 1,
    "green_award": false,
    "is_new_year": true,
    "badge_text": "1 Estrella MICHELIN 2026 | Nuevo 2026",
    "icon_key": "gold_star",
    "search_aliases": ["alcalde", "michelin guadalajara", "nuevo michelin jalisco"],
    "source_url": "https://guide.michelin.com/",
    "verification_status": "verified",
    "notes": "Nuevo en 2026."
  },
  {
    "name": "Xokol",
    "country": "MX",
    "state": "Jalisco",
    "city": "Guadalajara",
    "zone": "Santa Teresita",
    "address": "Herrera y Cairo 1375, Santa Teresita, Guadalajara, CP 44600",
    "lat": 20.6849,
    "lng": -103.3602,
    "latitude": 20.6849,
    "longitude": -103.3602,
    "category": "restaurantes",
    "subcategory": "fine_dining",
    "business_type": "restaurante",
    "cuisine_or_service": "Mexicana, Maiz nativo",
    "award_source": "MICHELIN Guide",
    "award_name": "MICHELIN Star",
    "award_year": 2026,
    "award_level": 1,
    "green_award": true,
    "is_new_year": true,
    "badge_text": "1 Estrella MICHELIN 2026 + Estrella Verde | Nuevo 2026",
    "icon_key": "gold_star_green_leaf",
    "search_aliases": ["xokol", "estrella verde guadalajara", "michelin santa teresita"],
    "source_url": "https://guide.michelin.com/",
    "verification_status": "verified",
    "notes": "Nuevo en 2026 y estrella verde."
  },
  {
    "name": "KOLI Cocina de Origen",
    "country": "MX",
    "state": "Nuevo Leon",
    "city": "Monterrey",
    "zone": "Del Valle",
    "address": "Rio Amazonas 225, Colonia Del Valle, Monterrey, CP 66220",
    "lat": 25.6525,
    "lng": -100.3617,
    "latitude": 25.6525,
    "longitude": -100.3617,
    "category": "restaurantes",
    "subcategory": "fine_dining",
    "business_type": "restaurante",
    "cuisine_or_service": "Mexicana, Creativa",
    "award_source": "MICHELIN Guide",
    "award_name": "MICHELIN Star",
    "award_year": 2026,
    "award_level": 1,
    "green_award": false,
    "is_new_year": false,
    "badge_text": "1 Estrella MICHELIN 2026",
    "icon_key": "gold_star",
    "search_aliases": ["koli", "michelin monterrey", "alta cocina nuevo leon"],
    "source_url": "https://guide.michelin.com/",
    "verification_status": "verified",
    "notes": ""
  },
  {
    "name": "Pangea",
    "country": "MX",
    "state": "Nuevo Leon",
    "city": "San Pedro Garza Garcia",
    "zone": "Valle del Campestre",
    "address": "Av. del Roble 660, Valle del Campestre, San Pedro Garza Garcia, CP 66273",
    "lat": 25.6490,
    "lng": -100.4031,
    "latitude": 25.6490,
    "longitude": -100.4031,
    "category": "restaurantes",
    "subcategory": "fine_dining",
    "business_type": "restaurante",
    "cuisine_or_service": "Actual, Mexicana",
    "award_source": "MICHELIN Guide",
    "award_name": "MICHELIN Star",
    "award_year": 2026,
    "award_level": 1,
    "green_award": false,
    "is_new_year": false,
    "badge_text": "1 Estrella MICHELIN 2026",
    "icon_key": "gold_star",
    "search_aliases": ["pangea", "michelin san pedro", "fine dining valle del campestre"],
    "source_url": "https://guide.michelin.com/",
    "verification_status": "verified",
    "notes": ""
  },
  {
    "name": "Los Danzantes Oaxaca",
    "country": "MX",
    "state": "Oaxaca",
    "city": "Oaxaca de Juarez",
    "zone": "Centro",
    "address": "Macedonio Alcala 403, Interior 4, Colonia Centro, Oaxaca, CP 68000",
    "lat": 17.0636,
    "lng": -96.7195,
    "latitude": 17.0636,
    "longitude": -96.7195,
    "category": "restaurantes",
    "subcategory": "fine_dining",
    "business_type": "restaurante",
    "cuisine_or_service": "Mexicana, Tradicional",
    "award_source": "MICHELIN Guide",
    "award_name": "MICHELIN Star",
    "award_year": 2026,
    "award_level": 1,
    "green_award": true,
    "is_new_year": false,
    "badge_text": "1 Estrella MICHELIN 2026 + Estrella Verde",
    "icon_key": "gold_star_green_leaf",
    "search_aliases": ["los danzantes", "estrella verde oaxaca", "michelin centro oaxaca"],
    "source_url": "https://guide.michelin.com/",
    "verification_status": "verified",
    "notes": ""
  },
  {
    "name": "Levadura de Olla Restaurante",
    "country": "MX",
    "state": "Oaxaca",
    "city": "Oaxaca de Juarez",
    "zone": "Oaxaca de Juarez",
    "address": "C. de Manuel Garcia Vigil 304, Oaxaca, CP 68000",
    "lat": 17.0648,
    "lng": -96.7218,
    "latitude": 17.0648,
    "longitude": -96.7218,
    "category": "restaurantes",
    "subcategory": "fine_dining",
    "business_type": "restaurante",
    "cuisine_or_service": "Mexicana, Tradicional",
    "award_source": "MICHELIN Guide",
    "award_name": "MICHELIN Star",
    "award_year": 2026,
    "award_level": 1,
    "green_award": false,
    "is_new_year": false,
    "badge_text": "1 Estrella MICHELIN 2026",
    "icon_key": "gold_star",
    "search_aliases": ["levadura de olla", "michelin oaxaca", "restaurante premiado oaxaca"],
    "source_url": "https://guide.michelin.com/",
    "verification_status": "verified",
    "notes": ""
  },
  {
    "name": "Animalon",
    "country": "MX",
    "state": "Baja California",
    "city": "Valle de Guadalupe",
    "zone": "Valle de Guadalupe",
    "address": "Carr. Tecate-Ensenada Km. 83, Ejido Francisco Zarco, Valle de Guadalupe, CP 22750",
    "lat": 32.0182,
    "lng": -116.6012,
    "latitude": 32.0182,
    "longitude": -116.6012,
    "category": "restaurantes",
    "subcategory": "fine_dining",
    "business_type": "restaurante",
    "cuisine_or_service": "Mexicana, Contemporanea",
    "award_source": "MICHELIN Guide",
    "award_name": "MICHELIN Star",
    "award_year": 2026,
    "award_level": 1,
    "green_award": false,
    "is_new_year": false,
    "badge_text": "1 Estrella MICHELIN 2026",
    "icon_key": "gold_star",
    "search_aliases": ["animalon", "michelin valle de guadalupe", "fine dining ensenada"],
    "source_url": "https://guide.michelin.com/",
    "verification_status": "verified",
    "notes": ""
  },
  {
    "name": "Conchas de Piedra",
    "country": "MX",
    "state": "Baja California",
    "city": "Valle de Guadalupe",
    "zone": "Valle de Guadalupe",
    "address": "Carr. Tecate Km. 93.5, Valle de Guadalupe, CP 22761",
    "lat": 32.0271,
    "lng": -116.5849,
    "latitude": 32.0271,
    "longitude": -116.5849,
    "category": "restaurantes",
    "subcategory": "seafood_restaurant",
    "business_type": "marisqueria",
    "cuisine_or_service": "Pescados y mariscos, Mexicana",
    "award_source": "MICHELIN Guide",
    "award_name": "MICHELIN Star",
    "award_year": 2026,
    "award_level": 1,
    "green_award": true,
    "is_new_year": false,
    "badge_text": "1 Estrella MICHELIN 2026 + Estrella Verde",
    "icon_key": "gold_star_green_leaf",
    "search_aliases": ["conchas de piedra", "mariscos michelin valle", "estrella verde baja california"],
    "source_url": "https://guide.michelin.com/",
    "verification_status": "verified",
    "notes": ""
  },
  {
    "name": "Damiana",
    "country": "MX",
    "state": "Baja California",
    "city": "Valle de Guadalupe",
    "zone": "Valle de Guadalupe",
    "address": "Vinedos de la Reina, Mexico 3 Supermanzana, Km. 71, Valle de Guadalupe, CP 22034",
    "lat": 32.0053,
    "lng": -116.5803,
    "latitude": 32.0053,
    "longitude": -116.5803,
    "category": "restaurantes",
    "subcategory": "fine_dining",
    "business_type": "restaurante fusion",
    "cuisine_or_service": "Mexicana, Fusion",
    "award_source": "MICHELIN Guide",
    "award_name": "MICHELIN Star",
    "award_year": 2026,
    "award_level": 1,
    "green_award": true,
    "is_new_year": false,
    "badge_text": "1 Estrella MICHELIN 2026 + Estrella Verde",
    "icon_key": "gold_star_green_leaf",
    "search_aliases": ["damiana", "michelin valle de guadalupe", "estrella verde valle"],
    "source_url": "https://guide.michelin.com/",
    "verification_status": "verified",
    "notes": ""
  },
  {
    "name": "Lunario",
    "country": "MX",
    "state": "Baja California",
    "city": "El Porvenir",
    "zone": "Valle de Guadalupe",
    "address": "Camino Vecinal Parcela 71 Fracc. 3 Lote 13, San Marcos, El Porvenir, CP 22750",
    "lat": 32.0139,
    "lng": -116.5961,
    "latitude": 32.0139,
    "longitude": -116.5961,
    "category": "restaurantes",
    "subcategory": "fine_dining",
    "business_type": "restaurante",
    "cuisine_or_service": "Mexicana, Contemporanea",
    "award_source": "MICHELIN Guide",
    "award_name": "MICHELIN Star",
    "award_year": 2026,
    "award_level": 1,
    "green_award": true,
    "is_new_year": false,
    "badge_text": "1 Estrella MICHELIN 2026 + Estrella Verde",
    "icon_key": "gold_star_green_leaf",
    "search_aliases": ["lunario", "michelin el porvenir", "estrella verde valle de guadalupe"],
    "source_url": "https://guide.michelin.com/",
    "verification_status": "verified",
    "notes": ""
  },
  {
    "name": "Olivea Farm to Table",
    "country": "MX",
    "state": "Baja California",
    "city": "Ensenada",
    "zone": "Valle de Guadalupe",
    "address": "Carr. Federal 3, Km. 92.5, Ruta del Vino Valle de Guadalupe, Ensenada, CP 22766",
    "lat": 32.0215,
    "lng": -116.5872,
    "latitude": 32.0215,
    "longitude": -116.5872,
    "category": "restaurantes",
    "subcategory": "fine_dining",
    "business_type": "farm_to_table",
    "cuisine_or_service": "Actual, Contemporanea",
    "award_source": "MICHELIN Guide",
    "award_name": "MICHELIN Star",
    "award_year": 2026,
    "award_level": 1,
    "green_award": true,
    "is_new_year": false,
    "badge_text": "1 Estrella MICHELIN 2026 + Estrella Verde",
    "icon_key": "gold_star_green_leaf",
    "search_aliases": ["olivea", "farm to table ensenada", "estrella verde ensenada"],
    "source_url": "https://guide.michelin.com/",
    "verification_status": "verified",
    "notes": ""
  },
  {
    "name": "Cocina de Autor Los Cabos",
    "country": "MX",
    "state": "Baja California Sur",
    "city": "Cabo San Lucas",
    "zone": "Los Cabos",
    "address": "Grand Velas Los Cabos, Carr. Transpeninsular Km. 17, San Jose del Cabo, Corredor Turistico, Cabo San Lucas, CP 23405",
    "lat": 23.0621,
    "lng": -109.7095,
    "latitude": 23.0621,
    "longitude": -109.7095,
    "category": "restaurantes",
    "subcategory": "fine_dining",
    "business_type": "restaurante",
    "cuisine_or_service": "Mexicana",
    "award_source": "MICHELIN Guide",
    "award_name": "MICHELIN Star",
    "award_year": 2026,
    "award_level": 1,
    "green_award": false,
    "is_new_year": false,
    "badge_text": "1 Estrella MICHELIN 2026",
    "icon_key": "gold_star",
    "search_aliases": ["cocina de autor los cabos", "michelin los cabos", "fine dining cabo san lucas"],
    "source_url": "https://guide.michelin.com/",
    "verification_status": "verified",
    "notes": ""
  },
  {
    "name": "Cocina de Autor Riviera Maya",
    "country": "MX",
    "state": "Quintana Roo",
    "city": "Playa del Carmen",
    "zone": "Riviera Maya",
    "address": "Grand Velas Riviera Maya, Carr. Cancun-Tulum Km. 62, Playa del Carmen, CP 77710",
    "lat": 20.6403,
    "lng": -87.0777,
    "latitude": 20.6403,
    "longitude": -87.0777,
    "category": "restaurantes",
    "subcategory": "fine_dining",
    "business_type": "restaurante",
    "cuisine_or_service": "Creativa, Mexicana",
    "award_source": "MICHELIN Guide",
    "award_name": "MICHELIN Star",
    "award_year": 2026,
    "award_level": 1,
    "green_award": false,
    "is_new_year": false,
    "badge_text": "1 Estrella MICHELIN 2026",
    "icon_key": "gold_star",
    "search_aliases": ["cocina de autor riviera maya", "michelin playa del carmen", "fine dining riviera maya"],
    "source_url": "https://guide.michelin.com/",
    "verification_status": "verified",
    "notes": ""
  },
  {
    "name": "HA'",
    "country": "MX",
    "state": "Quintana Roo",
    "city": "Playa del Carmen",
    "zone": "Hotel Xcaret",
    "address": "Hotel Xcaret, Carr. Chetumal-Puerto Juarez Kilometro 282, Solidaridad, Playa del Carmen, CP 77710",
    "lat": 20.5813,
    "lng": -87.1258,
    "latitude": 20.5813,
    "longitude": -87.1258,
    "category": "restaurantes",
    "subcategory": "fine_dining",
    "business_type": "restaurante",
    "cuisine_or_service": "Mexicana, Contemporanea",
    "award_source": "MICHELIN Guide",
    "award_name": "MICHELIN Star",
    "award_year": 2026,
    "award_level": 1,
    "green_award": false,
    "is_new_year": false,
    "badge_text": "1 Estrella MICHELIN 2026",
    "icon_key": "gold_star",
    "search_aliases": ["ha", "michelin xcaret", "alta cocina playa del carmen"],
    "source_url": "https://guide.michelin.com/",
    "verification_status": "verified",
    "notes": ""
  },
  {
    "name": "Le Chique",
    "country": "MX",
    "state": "Quintana Roo",
    "city": "Playa del Carmen",
    "zone": "Hotel Xcaret Arte",
    "address": "Hotel Xcaret Arte, Carr. Chetumal-Puerto Juarez Km. 282 L21-3, Colonia Rancho Xcaret, Playa del Carmen, CP 77710",
    "lat": 20.5816,
    "lng": -87.1261,
    "latitude": 20.5816,
    "longitude": -87.1261,
    "category": "restaurantes",
    "subcategory": "fine_dining",
    "business_type": "restaurante",
    "cuisine_or_service": "Contemporanea, Mexicana",
    "award_source": "MICHELIN Guide",
    "award_name": "MICHELIN Star",
    "award_year": 2026,
    "award_level": 1,
    "green_award": false,
    "is_new_year": false,
    "badge_text": "1 Estrella MICHELIN 2026",
    "icon_key": "gold_star",
    "search_aliases": ["le chique", "michelin xcaret arte", "restaurante premiado riviera maya"],
    "source_url": "https://guide.michelin.com/",
    "verification_status": "verified",
    "notes": ""
  },
  {
    "name": "Huniik",
    "country": "MX",
    "state": "Yucatan",
    "city": "Merida",
    "zone": "Centro",
    "address": "Calle 60 No. 415-B entre Calle 45 y Calle 47, Centro, Merida, CP 97000",
    "lat": 20.9761,
    "lng": -89.6228,
    "latitude": 20.9761,
    "longitude": -89.6228,
    "category": "restaurantes",
    "subcategory": "fine_dining",
    "business_type": "restaurante",
    "cuisine_or_service": "Yucateca, Mexicana",
    "award_source": "MICHELIN Guide",
    "award_name": "MICHELIN Star",
    "award_year": 2026,
    "award_level": 1,
    "green_award": false,
    "is_new_year": true,
    "badge_text": "1 Estrella MICHELIN 2026 | Nuevo 2026",
    "icon_key": "gold_star",
    "search_aliases": ["huniik", "michelin merida", "nuevo michelin yucatan"],
    "source_url": "https://guide.michelin.com/",
    "verification_status": "verified",
    "notes": "Nuevo en 2026."
  },
  {
    "name": "La Barra de Huniik",
    "country": "MX",
    "state": "Yucatan",
    "city": "Merida",
    "zone": "Parque Santa Ana",
    "address": "C. 60 417, Parque Santa Ana, Centro, Merida, CP 97000",
    "lat": 20.9763,
    "lng": -89.6230,
    "latitude": 20.9763,
    "longitude": -89.6230,
    "category": "restaurantes",
    "subcategory": "fine_dining",
    "business_type": "barra gastronomica",
    "cuisine_or_service": "Yucateca, Mexicana",
    "award_source": "MICHELIN Guide",
    "award_name": "MICHELIN Star",
    "award_year": 2026,
    "award_level": 1,
    "green_award": false,
    "is_new_year": true,
    "badge_text": "1 Estrella MICHELIN 2026 | Nuevo 2026",
    "icon_key": "gold_star",
    "search_aliases": ["la barra de huniik", "michelin santa ana merida", "nuevo michelin merida"],
    "source_url": "https://guide.michelin.com/",
    "verification_status": "verified",
    "notes": "Nuevo en 2026."
  },
  {
    "name": "Ixi'im",
    "country": "MX",
    "state": "Yucatan",
    "city": "Chochola",
    "zone": "Chable Yucatan",
    "address": "Chable Yucatan, Tablaje 642, San Antonio Chable, Chochola, CP 97816",
    "lat": 20.7985,
    "lng": -89.9527,
    "latitude": 20.7985,
    "longitude": -89.9527,
    "category": "restaurantes",
    "subcategory": "fine_dining",
    "business_type": "restaurante",
    "cuisine_or_service": "Mexicana, Contemporanea, Maya",
    "award_source": "MICHELIN Guide",
    "award_name": "MICHELIN Star",
    "award_year": 2026,
    "award_level": 1,
    "green_award": true,
    "is_new_year": true,
    "badge_text": "1 Estrella MICHELIN 2026 + Estrella Verde | Nuevo 2026",
    "icon_key": "gold_star_green_leaf",
    "search_aliases": ["ixiim", "michelin chochola", "estrella verde yucatan", "maya michelin"],
    "source_url": "https://guide.michelin.com/",
    "verification_status": "verified",
    "notes": "Nuevo en 2026."
  }
]
